[
    {
        "lat": 42.193981477571,
        "lon": -71.117870366125,
        "offsetX": 0,
        "offsetY": 0,
        "courseName": "#1-Ponkapoag Golf Course"
    },
    {
        "lat": 42.203611107243,
        "lon": -71.117499995753,
        "offsetX": 0,
        "offsetY": 0,
        "courseName": "#2-Ponkapoag Golf Course"
    },
    {
        "lat": 40.734814813284,
        "lon": -73.57388888665,
        "offsetX": 0,
        "offsetY": 0,
        "courseName": "(Left) Blue - Eisenhower Park Golf Course"
    },
    {
        "lat": 40.769351850473,
        "lon": -96.601944442329,
        "offsetX": 0,
        "offsetY": 0,
        "courseName": "(Right #4) White - NuMark Golf Course"
    },
    {
        "lat": 33.620740738708,
        "lon": -117.731851850308,
        "offsetX": 0,
        "offsetY": 0,
        "courseName": "1 - Laguna Woods Golf Club"
    },
    {
        "lat": 41.977592592129994,
        "lon": -88.052870365839,
        "offsetX": 0,
        "offsetY": 0,
        "courseName": "1 - Medinah Country Club"
    },
    {
        "lat": 35.191203699781,
        "lon": -79.474074071396,
        "offsetX": 0,
        "offsetY": 0,
        "courseName": "1 - Pinehurst Country Club"
    },
    {
        "lat": 37.14703703292,
        "lon": -76.602870368259,
        "offsetX": 0,
        "offsetY": 0,
        "courseName": "1 - Pines Golf Course"
    },
    {
        "lat": 26.247499996325,
        "lon": -98.420092589677,
        "offsetX": 0,
        "offsetY": 0,
        "courseName": "1-18 - Howling Trails Golf Course"
    },
    {
        "lat": 34.786018517212995,
        "lon": -92.422685182281,
        "offsetX": 0,
        "offsetY": 0,
        "courseName": "1-18 - Pleasant Valley Country Club"
    },
    {
        "lat": 34.920092591877,
        "lon": -82.594444442296,
        "offsetX": 0,
        "offsetY": 0,
        "courseName": "1-9 & 10-18 - Rolling Green Golf Club"
    },
    {
        "lat": 42.801018517279,
        "lon": -84.48407407143999,
        "offsetX": 0,
        "offsetY": 0,
        "courseName": "1-9 - Hawk Hollow Golf Course"
    },
    {
        "lat": 35.211666662834,
        "lon": -106.338055552279,
        "offsetX": 0,
        "offsetY": 0,
        "courseName": "1-9 - Paa Ko Ridge Golf Club"
    },
    {
        "lat": 34.921759258551,
        "lon": -82.595092590447,
        "offsetX": 0,
        "offsetY": 0,
        "courseName": "1-9 - Rolling Green Golf Club"
    },
    {
        "lat": 27.405740737762002,
        "lon": -82.480925923278,
        "offsetX": 0,
        "offsetY": 0,
        "courseName": "1-9 - University Park Country Club"
    },
    {
        "lat": 29.232407403666002,
        "lon": -82.26462962603,
        "offsetX": 0,
        "offsetY": 0,
        "courseName": "1-9 Golden Ocala Golf & Equestrian Club"
    },
    {
        "lat": 38.83499999891,
        "lon": -89.84453703598899,
        "offsetX": 0,
        "offsetY": 0,
        "courseName": "1-9 West - Oak Brook Golf Course"
    },
    {
        "lat": 42.798518517268,
        "lon": -84.477870367709,
        "offsetX": 0,
        "offsetY": 0,
        "courseName": "10-18 - Hawk Hollow Golf Course"
    },
    {
        "lat": 35.209351848009,
        "lon": -106.33962962636,
        "offsetX": 0,
        "offsetY": 0,
        "courseName": "10-18 - Paako Ridge Golf Club"
    },
    {
        "lat": 39.020277773103,
        "lon": -77.45333333056399,
        "offsetX": 0,
        "offsetY": 0,
        "courseName": "1757 (Seventeen-Fifty-Seven) Golf Club"
    },
    {
        "lat": 42.823981480343,
        "lon": -71.190740736816,
        "offsetX": 0,
        "offsetY": 0,
        "courseName": "18 - Atkinson Country Club & Resort"
    },
    {
        "lat": 45.03962962504,
        "lon": -93.617499997953,
        "offsetX": 0,
        "offsetY": 0,
        "courseName": "18 - Baker National Golf"
    },
    {
        "lat": 44.793981480210995,
        "lon": -68.806851850638,
        "offsetX": 0,
        "offsetY": 0,
        "courseName": "18 - Bangor Municipal Golf Course"
    },
    {
        "lat": 40.156851847778,
        "lon": -74.097129625293,
        "offsetX": 0,
        "offsetY": 0,
        "courseName": "18 - Bel-Aire Golf Club"
    },
    {
        "lat": 37.259629626008,
        "lon": -93.261759255647,
        "offsetX": 0,
        "offsetY": 0,
        "courseName": "18 - Bill & Payne Stewart Municipal Golf Course"
    },
    {
        "lat": 43.234351848119,
        "lon": -88.135185181016,
        "offsetX": 0,
        "offsetY": 0,
        "courseName": "18 - Blackstone Creek Golf Club"
    },
    {
        "lat": 37.722870368787,
        "lon": -84.827314813691,
        "offsetX": 0,
        "offsetY": 0,
        "courseName": "18 - Bright Leaf Golf Resort"
    },
    {
        "lat": 39.652777775886,
        "lon": -105.023611106451,
        "offsetX": 0,
        "offsetY": 0,
        "courseName": "18 - Broken Tee Golf Course"
    },
    {
        "lat": 40.802314813581,
        "lon": -77.840648147083,
        "offsetX": 0,
        "offsetY": 0,
        "courseName": "18 - Centre Hills Country Club"
    },
    {
        "lat": 39.649999998096,
        "lon": -104.97648148101399,
        "offsetX": 0,
        "offsetY": 0,
        "courseName": "18 - Cherry Hills Country Club"
    },
    {
        "lat": 48.324629626294,
        "lon": -117.76648148009,
        "offsetX": 0,
        "offsetY": 0,
        "courseName": "18 - Chewelah Golf & Country Club"
    },
    {
        "lat": 34.213611107287,
        "lon": -118.306851848438,
        "offsetX": 0,
        "offsetY": 0,
        "courseName": "18 - De Bell Golf Course"
    },
    {
        "lat": 33.481666664022,
        "lon": -112.10074073642,
        "offsetX": 0,
        "offsetY": 0,
        "courseName": "18 - Encanto Golf Course"
    },
    {
        "lat": 39.317499996632996,
        "lon": -84.550925923586,
        "offsetX": 0,
        "offsetY": 0,
        "courseName": "18 - Fairfield Greens Golf Course"
    },
    {
        "lat": 27.770740739368,
        "lon": -97.452962960192,
        "offsetX": 0,
        "offsetY": 0,
        "courseName": "18 - Fred Arbanas Golf Course"
    },
    {
        "lat": 27.770740739368,
        "lon": -97.452962960192,
        "offsetX": 0,
        "offsetY": 0,
        "courseName": "18 - Gabe Lozano Sr. Golf Center"
    },
    {
        "lat": 40.693240739027,
        "lon": -74.294074070604,
        "offsetX": 0,
        "offsetY": 0,
        "courseName": "18 - Galloping Hill Golf Course"
    },
    {
        "lat": 47.734722220691,
        "lon": -122.324444441108,
        "offsetX": 0,
        "offsetY": 0,
        "courseName": "18 - Jackson Park Golf Course"
    },
    {
        "lat": 41.089907403039,
        "lon": -85.091574069713,
        "offsetX": 0,
        "offsetY": 0,
        "courseName": "18 - Lakeside Golf Course"
    },
    {
        "lat": 39.108518514231996,
        "lon": -77.09435184750299,
        "offsetX": 0,
        "offsetY": 0,
        "courseName": "18 - Manor Country Club"
    },
    {
        "lat": 45.079166662251,
        "lon": -92.844629628582,
        "offsetX": 0,
        "offsetY": 0,
        "courseName": "18 - Oak Glen Country Club"
    },
    {
        "lat": 41.400648145146995,
        "lon": -75.724999998426,
        "offsetX": 0,
        "offsetY": 0,
        "courseName": "18 - Pine Hills Country Club"
    },
    {
        "lat": 41.301944441009,
        "lon": -73.026203699055,
        "offsetX": 0,
        "offsetY": 0,
        "courseName": "18 - Race Brook Country Club"
    },
    {
        "lat": 41.161388884835,
        "lon": -73.445370367566,
        "offsetX": 0,
        "offsetY": 0,
        "courseName": "18 - Silvermine Golf Club"
    },
    {
        "lat": 34.514907404908996,
        "lon": -110.125648143937,
        "offsetX": 0,
        "offsetY": 0,
        "courseName": "18 - Snowflake Golf Course"
    },
    {
        "lat": 36.078796291878994,
        "lon": -95.95592592536799,
        "offsetX": 0,
        "offsetY": 0,
        "courseName": "18 - Southern Hills Country Club"
    },
    {
        "lat": 39.256574070439,
        "lon": -76.48027777512699,
        "offsetX": 0,
        "offsetY": 0,
        "courseName": "18 - Sparrows Point Country Club"
    },
    {
        "lat": 35.965370369854,
        "lon": -89.930185184514,
        "offsetX": 0,
        "offsetY": 0,
        "courseName": "18 - Thunder Bayou Golf Links"
    },
    {
        "lat": 40.727777776215994,
        "lon": -96.695925924224,
        "offsetX": 0,
        "offsetY": 0,
        "courseName": "18 Championship - Wilderness Ridge Golf Club"
    },
    {
        "lat": 43.453055552784996,
        "lon": -110.835277776689,
        "offsetX": 0,
        "offsetY": 0,
        "courseName": "3 Creek Ranch Golf Club"
    },
    {
        "lat": 41.860092591613,
        "lon": -90.921851851144,
        "offsetX": 0,
        "offsetY": 0,
        "courseName": "3-30 Golf & Country Club"
    },
    {
        "lat": 42.826296295168,
        "lon": -71.191574070153,
        "offsetX": 0,
        "offsetY": 0,
        "courseName": "9 - Atkinson Country Club & Resort"
    },
    {
        "lat": 37.722870368787,
        "lon": -84.827222221098,
        "offsetX": 0,
        "offsetY": 0,
        "courseName": "9 - Bright Leaf Golf Resort"
    },
    {
        "lat": 40.167592588565995,
        "lon": -85.391851848812,
        "offsetX": 0,
        "offsetY": 0,
        "courseName": "9 - Crestview Golf Club"
    },
    {
        "lat": 35.73407407254,
        "lon": -95.422407404502,
        "offsetX": 0,
        "offsetY": 0,
        "courseName": "9 - Eagle Crest Golf Course"
    },
    {
        "lat": 39.321296292945995,
        "lon": -84.547407405052,
        "offsetX": 0,
        "offsetY": 0,
        "courseName": "9 - Fairfield Greens Golf Course"
    },
    {
        "lat": 42.891111110268,
        "lon": -93.232592588852,
        "offsetX": 0,
        "offsetY": 0,
        "courseName": "9 - Ridge Stone Golf Club"
    },
    {
        "lat": 45.174259255262,
        "lon": -123.220648144355,
        "offsetX": 0,
        "offsetY": 0,
        "courseName": "9 Regulation - Bayou Golf Club"
    },
    {
        "lat": 45.173425921924995,
        "lon": -123.21370369988,
        "offsetX": 0,
        "offsetY": 0,
        "courseName": "9 Short - Bayou Golf Club"
    },
    {
        "lat": 42.703240739071,
        "lon": -114.444074071264,
        "offsetX": 0,
        "offsetY": 0,
        "courseName": "93 Golf Ranch"
    },
    {
        "lat": 21.333611107815003,
        "lon": -158.020370365696,
        "offsetX": 0,
        "offsetY": 0,
        "courseName": "A - Hawaii Prince Golf Club"
    },
    {
        "lat": 42.545370368006,
        "lon": -88.56185184956,
        "offsetX": 0,
        "offsetY": 0,
        "courseName": "Abbey Springs Golf Course"
    },
    {
        "lat": 33.833888887794,
        "lon": -88.57509259035899,
        "offsetX": 0,
        "offsetY": 0,
        "courseName": "Aberdeen Golf & Country Club National"
    },
    {
        "lat": 38.938148147511995,
        "lon": -97.238240737025,
        "offsetX": 0,
        "offsetY": 0,
        "courseName": "Abilene Golf and Fitness"
    },
    {
        "lat": 30.509259256736,
        "lon": -89.964166666145,
        "offsetX": 0,
        "offsetY": 0,
        "courseName": "Abita Springs Golf & Country Club"
    },
    {
        "lat": 32.29981481137,
        "lon": -92.771574072705,
        "offsetX": 0,
        "offsetY": 0,
        "courseName": "Advance Country Club"
    },
    {
        "lat": 41.839259258188,
        "lon": -71.36018518200599,
        "offsetX": 0,
        "offsetY": 0,
        "courseName": "Agawam Hunt Club"
    },
    {
        "lat": 21.287777774280002,
        "lon": -157.82796296184202,
        "offsetX": 0,
        "offsetY": 0,
        "courseName": "Ala Wai Golf Course"
    },
    {
        "lat": 44.914444443704,
        "lon": -73.31277777439,
        "offsetX": 0,
        "offsetY": 0,
        "courseName": "Alburg Golf Links"
    },
    {
        "lat": 43.033703699088,
        "lon": -96.629166664671,
        "offsetX": 0,
        "offsetY": 0,
        "courseName": "Alcester Golf Club"
    },
    {
        "lat": 36.306759255844995,
        "lon": -115.193703699792,
        "offsetX": 0,
        "offsetY": 0,
        "courseName": "Aliante Golf Club"
    },
    {
        "lat": 33.145925921804,
        "lon": -88.16564814411299,
        "offsetX": 0,
        "offsetY": 0,
        "courseName": "Aliceville Country Club"
    },
    {
        "lat": 37.929814814142,
        "lon": -95.35953703385499,
        "offsetX": 0,
        "offsetY": 0,
        "courseName": "Allen County Country Club"
    },
    {
        "lat": 33.44611110831,
        "lon": -86.308055552147,
        "offsetX": 0,
        "offsetY": 0,
        "courseName": "Alpine Bay Golf Club"
    },
    {
        "lat": 41.792222220944,
        "lon": -71.562407405118,
        "offsetX": 0,
        "offsetY": 0,
        "courseName": "Alpine Country Club"
    },
    {
        "lat": 39.468518515816,
        "lon": -79.507592590062,
        "offsetX": 0,
        "offsetY": 0,
        "courseName": "Alpine Lake Resort"
    },
    {
        "lat": 33.407499997029,
        "lon": -105.676203701915,
        "offsetX": 0,
        "offsetY": 0,
        "courseName": "Alto Lakes - Alto Lakes Golf & Country Club"
    },
    {
        "lat": 49.32479166667747,
        "lon": -123.14895833334694,
        "offsetX": 0,
        "offsetY": 0,
        "courseName": "Ambleside Par 3 Golf Course"
    },
    {
        "lat": 38.737685183667,
        "lon": -75.148796292187,
        "offsetX": 0,
        "offsetY": 0,
        "courseName": "American Classic Golf Club"
    },
    {
        "lat": 42.785462961655,
        "lon": -112.864537036077,
        "offsetX": 0,
        "offsetY": 0,
        "courseName": "American Falls Golf Club"
    },
    {
        "lat": 34.00537036563,
        "lon": -88.47481481214,
        "offsetX": 0,
        "offsetY": 0,
        "courseName": "Amory Golf Club"
    },
    {
        "lat": 46.116203699451,
        "lon": -112.844999998954,
        "offsetX": 0,
        "offsetY": 0,
        "courseName": "Anaconda Country Club"
    },
    {
        "lat": 61.130370366179996,
        "lon": -149.829166665551,
        "offsetX": 0,
        "offsetY": 0,
        "courseName": "Anchorage Golf Course"
    },
    {
        "lat": 36.138518514363994,
        "lon": -82.872129628703,
        "offsetX": 0,
        "offsetY": 0,
        "courseName": "Andrew Johnson Golf Club"
    },
    {
        "lat": 35.976481481014,
        "lon": -115.095648143805,
        "offsetX": 0,
        "offsetY": 0,
        "courseName": "Anthem Country Club"
    },
    {
        "lat": 46.811296295102,
        "lon": -100.658981479617,
        "offsetX": 0,
        "offsetY": 0,
        "courseName": "Apple Creek Country Club"
    },
    {
        "lat": 48.211388885055,
        "lon": -101.237592588874,
        "offsetX": 0,
        "offsetY": 0,
        "courseName": "Apple Grove Golf Course"
    },
    {
        "lat": 39.405092589610994,
        "lon": -80.181203699737,
        "offsetX": 0,
        "offsetY": 0,
        "courseName": "Apple Valley Golf Course"
    },
    {
        "lat": 44.461481478748,
        "lon": -86.251851848196,
        "offsetX": 0,
        "offsetY": 0,
        "courseName": "Arcadia Bluffs Golf Course"
    },
    {
        "lat": 35.358796293111,
        "lon": -86.176574070087,
        "offsetX": 0,
        "offsetY": 0,
        "courseName": "Arnold Golf Course"
    },
    {
        "lat": 44.058796291791,
        "lon": -103.27342592236499,
        "offsetX": 0,
        "offsetY": 0,
        "courseName": "Arrowhead Country Club"
    },
    {
        "lat": 39.463796293573,
        "lon": -105.090648143783,
        "offsetX": 0,
        "offsetY": 0,
        "courseName": "Arrowhead Golf Club"
    },
    {
        "lat": 44.687407405668,
        "lon": -73.161203699649,
        "offsetX": 0,
        "offsetY": 0,
        "courseName": "Arrowhead Golf Course"
    },
    {
        "lat": 30.415925922992002,
        "lon": -98.105648143849,
        "offsetX": 0,
        "offsetY": 0,
        "courseName": "Austin Golf Club"
    },
    {
        "lat": 47.716203702091,
        "lon": -91.986481481058,
        "offsetX": 0,
        "offsetY": 0,
        "courseName": "Babbitt Golf Course"
    },
    {
        "lat": 34.154907403325,
        "lon": -117.32898147816499,
        "offsetX": 0,
        "offsetY": 0,
        "courseName": "Back 9 - Shandin Hills Golf Club"
    },
    {
        "lat": 39.513333330828,
        "lon": -75.76814814676399,
        "offsetX": 0,
        "offsetY": 0,
        "courseName": "Back Creek Golf Club"
    },
    {
        "lat": 42.50537036783,
        "lon": -71.10157406975699,
        "offsetX": 0,
        "offsetY": 0,
        "courseName": "Bear Hill Golf Club"
    },
    {
        "lat": 47.841666665606,
        "lon": -120.14018518103799,
        "offsetX": 0,
        "offsetY": 0,
        "courseName": "Bear Mountain Golf Club"
    },
    {
        "lat": 36.224999996225996,
        "lon": -81.891296295454,
        "offsetX": 0,
        "offsetY": 0,
        "courseName": "Beech Mountain Club"
    },
    {
        "lat": 35.766666665276,
        "lon": -83.361388885715,
        "offsetX": 0,
        "offsetY": 0,
        "courseName": "Bent Creek Golf Resort"
    },
    {
        "lat": 34.239814811106,
        "lon": -116.869074073134,
        "offsetX": 0,
        "offsetY": 0,
        "courseName": "Big Bear Mountain Ski & Golf Resort"
    },
    {
        "lat": 38.876111110202,
        "lon": -77.032962958344,
        "offsetX": 0,
        "offsetY": 0,
        "courseName": "Blue - East Potomac Public Golf Course"
    },
    {
        "lat": 37.158796292230996,
        "lon": -122.170462958949,
        "offsetX": 0,
        "offsetY": 0,
        "courseName": "Boulder Creek Golf & Country Club"
    },
    {
        "lat": 44.050833328793,
        "lon": -121.364814811656,
        "offsetX": 0,
        "offsetY": 0,
        "courseName": "Broken Top Club"
    },
    {
        "lat": 46.882962962084,
        "lon": -103.545555553192,
        "offsetX": 0,
        "offsetY": 0,
        "courseName": "Bully Pulpit Golf Course"
    },
    {
        "lat": 39.71833333173,
        "lon": -104.884722221351,
        "offsetX": 0,
        "offsetY": 0,
        "courseName": "Common Ground Golf Course"
    },
    {
        "lat": 36.613240738674996,
        "lon": -121.963425925401,
        "offsetX": 0,
        "offsetY": 0,
        "courseName": "Dunes - Monterey Peninsula Country Club"
    },
    {
        "lat": 31.9581481476,
        "lon": -106.405462959983,
        "offsetX": 0,
        "offsetY": 0,
        "courseName": "East - Painted Dunes Desert Golf Course"
    },
    {
        "lat": 39.064722217743,
        "lon": -108.63314814617,
        "offsetX": 0,
        "offsetY": 0,
        "courseName": "Golf Club at Redlands Mesa"
    },
    {
        "lat": 29.393888885858,
        "lon": -98.766944443055,
        "offsetX": 0,
        "offsetY": 0,
        "courseName": "Golf Club of Texas"
    },
    {
        "lat": 43.585833331147,
        "lon": -111.12277777355399,
        "offsetX": 0,
        "offsetY": 0,
        "courseName": "Headwaters Club at Teton Springs"
    },
    {
        "lat": 37.866851850901995,
        "lon": -109.35740740421599,
        "offsetX": 0,
        "offsetY": 0,
        "courseName": "Hideout Golf Course"
    },
    {
        "lat": 38.876203702794996,
        "lon": -120.02203703237,
        "offsetX": 0,
        "offsetY": 0,
        "courseName": "Lake Tahoe Golf Course"
    },
    {
        "lat": 38.912129628879,
        "lon": -76.97481481434,
        "offsetX": 0,
        "offsetY": 0,
        "courseName": "Langston Legacy Golf Course & Driving Range"
    },
    {
        "lat": 47.601759257142994,
        "lon": -92.322129626283,
        "offsetX": 0,
        "offsetY": 0,
        "courseName": "Legend - Giants Ridge Golf & Ski Resort"
    },
    {
        "lat": 35.196388884989,
        "lon": -79.404814811832,
        "offsetX": 0,
        "offsetY": 0,
        "courseName": "Mid Pines Inn & Golf Club"
    },
    {
        "lat": 48.48020833334165,
        "lon": -123.54187500000731,
        "offsetX": 0,
        "offsetY": 0,
        "courseName": "Mountain - Bear Mountain Golf & Country Club"
    },
    {
        "lat": 33.793888887617996,
        "lon": -116.543981479111,
        "offsetX": 0,
        "offsetY": 0,
        "courseName": "North - Indian Canyons Golf Resort"
    },
    {
        "lat": 44.184537033085,
        "lon": -69.640370368424,
        "offsetX": 0,
        "offsetY": 0,
        "courseName": "p60VUTshhBb5"
    },
    {
        "lat": 40.740740739235996,
        "lon": -111.449259256472,
        "offsetX": 0,
        "offsetY": 0,
        "courseName": "Painted Valley - Promontory Ranch Club"
    },
    {
        "lat": 36.574814812579994,
        "lon": -121.953240740171,
        "offsetX": 0,
        "offsetY": 0,
        "courseName": "Pebble Beach Golf Links"
    },
    {
        "lat": 36.770370368996,
        "lon": -108.186574070131,
        "offsetX": 0,
        "offsetY": 0,
        "courseName": "Pinon Hills Golf Course"
    },
    {
        "lat": 34.118981477241,
        "lon": -117.629537035043,
        "offsetX": 0,
        "offsetY": 0,
        "courseName": "Red Hill Country Club"
    },
    {
        "lat": 47.127407403203996,
        "lon": -123.11833332908999,
        "offsetX": 0,
        "offsetY": 0,
        "courseName": "Salish Cliffs Golf Club"
    },
    {
        "lat": 41.87666666576,
        "lon": -101.115740736486,
        "offsetX": 0,
        "offsetY": 0,
        "courseName": "Sand Hills Golf Club"
    },
    {
        "lat": 32.090462958596994,
        "lon": -81.302222218788,
        "offsetX": 0,
        "offsetY": 0,
        "courseName": "Savannah Quarters Country Club"
    },
    {
        "lat": 44.179999996027995,
        "lon": -123.189444440514,
        "offsetX": 0,
        "offsetY": 0,
        "courseName": "Shadow Hills Country Club"
    },
    {
        "lat": 40.904999999218,
        "lon": -73.603888886782,
        "offsetX": 0,
        "offsetY": 0,
        "courseName": "The Creek Club"
    },
    {
        "lat": 40.344999996754,
        "lon": -74.705648146489,
        "offsetX": 0,
        "offsetY": 0,
        "courseName": "TPC at Jasna Polana"
    },
    {
        "lat": 48.49270833334145,
        "lon": -123.53437500000743,
        "offsetX": 0,
        "offsetY": 0,
        "courseName": "Valley - Bear Mountain Golf & Country Club"
    },
    {
        "lat": 40.729907405854995,
        "lon": -73.107037032744,
        "offsetX": 0,
        "offsetY": 0,
        "courseName": "West Sayville Golf Course"
    },
    {
        "lat": 34.152962958871996,
        "lon": -84.139722218073,
        "offsetX": 0,
        "offsetY": 0,
        "courseName": "Windermere Golf Club"
    },
    {
        "lat": 36.845555554511996,
        "lon": -114.064259254778,
        "offsetX": 0,
        "offsetY": 0,
        "courseName": "Wolf Creek Golf Club Old Data"
    }
]